{
    "type": "FeatureCollection",
    "features": [
        {
            "type": "Feature",
            "properties": {
                "name": "Karavali Beach",
                "category": "beaches"
            },
            "geometry": {
                "type": "Point",
                "coordinates": [
                    74.827150,
                    12.849210
                ]
            }
        },
        {
            "type": "Feature",
            "properties": {
                "name": "Someshwara Beach",
                "category": "beaches"
            },
            "geometry": {
                "type": "Point",
                "coordinates": [
                    74.848056,
                    12.794444
                ]
            }
        },
        {
            "type": "Feature",
            "properties": {
                "name": "Panambur Beach",
                "category": "beaches"
            },
            "geometry": {
                "type": "Point",
                "coordinates": [
                    74.804414,
                    12.937083
                ]
            }
        },
        {
            "type": "Feature",
            "properties": {
                "name": "Tannirbhavi Beach",
                "category": "beaches"
            },
            "geometry": {
                "type": "Point",
                "coordinates": [
                    74.814067,
                    12.8913559
                ]
            }
        },
        {
            "type": "Feature",
            "properties": {
                "name": "Malpe Beach",
                "category": "beaches"
            },
            "geometry": {
                "type": "Point",
                "coordinates": [
                    74.69799538519477,
                    13.361821460697946
                ]
            }
        },
        {
            "type": "Feature",
            "properties": {
                "name": "Kaup Beach",
                "category": "beaches"
            },
            "geometry": {
                "type": "Point",
                "coordinates": [
                    74.73823758987315,
                    13.222325263162618
                ]
            }
        },
        {
            "type": "Feature",
            "properties": {
                "name": "Murudeshwara",
                "category": "historical"
            },
            "geometry": {
                "type": "Point",
                "coordinates": [
                    74.4914,
                    14.0947
                ]
            }
        },
        {
            "type": "Feature",
            "properties": {
                "name": "Mangalore Fort",
                "category": "historical"
            },
            "geometry": {
                "type": "Point",
                "coordinates": [
                    74.8422293,
                    12.8678808
                ]
            }
        },
        {
            "type": "Feature",
            "properties": {
                "name": "St. Aloysius Chapel",
                "category": "historical"
            },
            "geometry": {
                "type": "Point",
                "coordinates": [
                    74.8414,
                    12.8696
                ]
            }
        },
        {
            "type": "Feature",
            "properties": {
                "name": "Kadri Manjunath Temple",
                "category": "historical"
            },
            "geometry": {
                "type": "Point",
                "coordinates": [
                    74.8554969,
                    12.8857549
                ]
            }
        },
        {
            "type": "Feature",
            "properties": {
                "name": "Pilikula Nisargadhama",
                "category": "zoos"
            },
            "geometry": {
                "type": "Point",
                "coordinates": [
                    74.89559,
                    12.931365
                ]
            }
        },
        {
            "type": "Feature",
            "properties": {
                "name": "Mangaladevi Temple",
                "category": "historical"
            },
            "geometry": {
                "type": "Point",
                "coordinates": [
                    74.845585,
                    12.849162
                ]
            }
        },
        {
            "type": "Feature",
            "properties": {
                "name": "Kudroli Gokarnath Temple",
                "category": "historical"
            },
            "geometry": {
                "type": "Point",
                "coordinates": [
                    74.8314,
                    12.8759
                ]
            }
        },
        {
            "type": "Feature",
            "properties": {
                "name": "Udupi Sri Krishna Temple",
                "category": "historical"
            },
            "geometry": {
                "type": "Point",
                "coordinates": [
                    74.7519958,
                    13.3411861
                ]
            }
        },
        {
            "type": "Feature",
            "properties": {
                "name": "Karkala Jain Temples",
                "category": "historical"
            },
            "geometry": {
                "type": "Point",
                "coordinates": [
                    74.9951861,
                    13.2145414
                ]
            }
        },
        {
            "type": "Feature",
            "properties": {
                "name": "Gokarna Beach",
                "category": "beaches"
            },
            "geometry": {
                "type": "Point",
                "coordinates": [
                    74.3184418,
                    14.5439629
                ]
            }
        },
        {
            "type": "Feature",
            "properties": {
                "name": "Udupi",
                "category": "historical"
            },
            "geometry": {
                "type": "Point",
                "coordinates": [
                    74.747753,
                    13.341099
                ]
            }
        },
        {
            "type": "Feature",
            "properties": {
                "name": "Jog Falls",
                "category": "falls"
            },
            "geometry": {
                "type": "Point",
                "coordinates": [
                    74.8090216,
                    14.2241765
                ]
            }
        },
        {
            "type": "Feature",
            "properties": {
                "name": "Kudremukh National Park",
                "category": "natural"
            },
            "geometry": {
                "type": "Point",
                "coordinates": [
                    75.1250,
                    13.2800
                ]
            }
        },
        {
            "type": "Feature",
            "properties": {
                "name": "Chikmagalur Coffee Estates",
                "category": "natural"
            },
            "geometry": {
                "type": "Point",
                "coordinates": [
                    75.7744,
                    13.3180
                ]
            }
        },
        {
            "type": "Feature",
            "properties": {
                "name": "Coorg Abbey Falls",
                "category": "falls"
            },
            "geometry": {
                "type": "Point",
                "coordinates": [
                    75.7811,
                    12.3814
                ]
            }
        },
        {
            "type": "Feature",
            "properties": {
                "name": "St. Mary's Island",
                "category": "natural"
            },
            "geometry": {
                "type": "Point",
                "coordinates": [
                    74.6735,
                    13.3795
                ]
            }
        }
        
    ]
}
